Site Name,Department,Year,Current Solar,Electric Utility,Electricity Usage,Peak Electric Demand,Building Type,Building Area,Natural Gas Usage,Energy Use Intensity,Address,Latitude,Longitude
PHX Building 139,Aviation,2020,0,APS,1,0,REPAIRSERVICES,3616,0,0,2745 E Air Ln,33.44299,-112.02176
Old Verde Park Cntr,Parks,2020,0,APS,12,0,UNKNOWN,0,0,,916 E Van Buren St,33.45205,-112.06179
North Ranger Station - Old,Parks,2020,0,APS,77,0,OFFICE,0,0,,11659 N 16th St,33.59485,-112.04768
Lookout Mountain Trailhead,Parks,2020,0,APS,242,0,OUTDOORREC,0,0,,15415 N 16th St,33.6272,-112.0482
Laveen Basin,Parks,2020,0,SRP,317,0,PARK,0,0,,6039 S 43rd Ave,33.39098,-112.14917
Tawa Mini Park,Parks,2020,0,SRP,489,0,PARK,0,0,,4540 N 11th Ave,33.50389,-112.08718
Ho-E Mini Park,Parks,2020,0,SRP,552,0,PARK,0,0,,128 W Illini St,33.41183,-112.07694
PHX Hangar 1,Aviation,2020,0,APS,671,0,HANGAR,0,0,,2435 E Air Ln,33.4437,-112.02926
Kierland Park,Parks,2020,0,APS,749,0,PARK,0,0,,15800 N 66th St,33.63164,-111.94024
Mong Park,Parks,2020,0,SRP,888,0,PARK,0,0,,1432 E Wood St,33.40884,-112.04993
Sunset Basin,Parks,2020,0,SRP,896,1,PARK,0,0,,3830 N 63rd Ave,33.49361,-112.1967
Crossed Arrows Park,Parks,2020,0,APS,974,0,PARK,0,0,,6102 E Acoma Rd,33.62045,-111.94934
Watkins Center,Human Services,2020,0,APS,990,0,OTHERLODGINGRES,28000,0,0.11,1120 W Watkins Rd,33.42621,-112.08767
PHX Hangar 18,Aviation,2020,0,APS,1141,0,HANGAR,3772,0,0.95,2411 E Air Ln,33.44302,-112.0293
PHX Commercial Wash Rack,Aviation,2020,0,APS,1364,0,REPAIRSERVICES,0,0,,2417 E Air Ln,33.44369,-112.02942
PHX Hangar 20,Aviation,2020,0,APS,1374,0,HANGAR,3772,0,1.14,2411 E Air Ln,33.44302,-112.02969
PHX Hangar 19,Aviation,2020,0,APS,1471,0,HANGAR,3772,0,1.22,2411 E Air Ln,33.44304,-112.02953
Roosevelt Mini Park,Parks,2020,0,APS,1579,0,PARK,0,0,,837 N 3rd Ave,33.45811,-112.0774
PHX Building 121,Aviation,2020,0,APS,1608,0,HANGAR,3600,0,1.4,2535 E Air Ln,33.44301,-112.02865
Construction Site - NSD,Neighborhood,2020,0,APS,1640,0,VACANT,0,0,,415 E Puget Ave,33.56666,-112.06819
Yapa Park,Parks,2020,0,SRP,2169,2,PARK,0,0,,2732 E Mobile Ln,33.40172,-112.0227
DVT Covered Wash Area,Aviation,2020,0,APS,2465,0,OTHERSERVICES,0,0,,1200 W Deer Valley Dr,33.68419,-112.0883
Virginia Park,Parks,2020,0,APS,2734,0,PARK,0,0,,2605 N 15th St,33.47683,-112.04941
PHX Hangar 23,Aviation,2020,0,APS,3036,0,HANGAR,3772,0,2.53,417 S 24th St,33.44354,-112.0297
Taos House,Parks,2020,0,APS,3135,0,MUSEUM,441,0,22.33,4619 E Washington St,33.44646,-111.98589
Ladmo Park,Parks,2020,0,SRP,3264,2,PARK,0,0,,3101 N 41st Dr,33.48412,-112.1481
Generator-326 S 1 AVE,Streets,2020,0,APS,3367,0,ENERGYPOWERSTATI,0,17,,326 S 1st Ave,33.44446,-112.07508
Old AZGFD Office,Parks,2020,0,APS,3585,0,VACANT,8400,0,1.34,2245 W Greenway Rd,33.62489,-112.10651
Cancer Survivors Park,Parks,2020,0,APS,3968,0,PARK,0,0,,1428 N 1st St,33.46456,-112.07255
Townsend Park,Parks,2020,0,APS,3975,0,PARK,0,0,,520 E Lynwood St,33.46531,-112.06692
Housing Admin Parking,Housing,2020,0,APS,4342,0,PARKING,0,0,,906 E Jefferson St,33.44752,-112.06177
Ninos Park,Parks,2020,0,APS,4360,0,PARK,0,0,,1305 W Sherman St,33.43956,-112.0895
Shaw Butte Trailhead,Parks,2020,0,APS,4389,0,Other - Rec,0,0,,12898  N Central Ave,33.60361,-112.07418
Norton Park,Parks,2020,0,APS,4622,0,PARK,0,0,,1224 E Hatcher Rd,33.5716,-112.05546
Cashman Park,Parks,2020,0,APS,4717,9,PARK,0,0,,22222 N 44th Pl,33.68933,-111.98066
PHX Hangar 22,Aviation,2020,0,APS,4763,0,HANGAR,3772,0,3.97,2411 E Air Ln,33.44338,-112.02972
Encanto Boathouse,Parks,2020,0,APS,5164,0,OTHERRECREATION,3000,0,5.41,2605 N 15th Ave,33.47629,-112.08933
Adams St Parking Lot,Police,2020,0,APS,5451,0,PARKING,0,0,,717 W Washington St,33.44876,-112.08319
Mercury Mine Basin Park,Parks,2020,0,APS,5502,0,PARK,0,0,,3325 E Mountain View Rd,33.57486,-112.00944
Country Gables Park,Parks,2020,0,APS,5604,0,PARK,0,0,,3120 W Banff Ln,33.62091,-112.12772
PHX Building 131 - G,Aviation,2020,0,APS,5638,0,UKNOWN,3800,0,4.66,2625 E Air Ln,33.44373,-112.02471
40th St Trailhead,Parks,2020,0,APS,5664,0,OUTDOORREC,0,0,,9200 N 40th St,33.56789,-111.99642
Bishop Alexis A. Thomas Park,Parks,2020,0,SRP,5670,2,PARK,0,0,,1925 E Carver Dr,33.40357,-112.03987
Sonrisa Park,Parks,2020,0,APS,5682,0,PARK,0,0,,12850 N 52nd St,33.60344,-111.9708
Indian Bend Wash Park,Parks,2020,0,APS,5723,0,PARK,0,0,,3432 E Presidio Rd,33.60736,-112.00731
Encanto Snack,Parks,2020,0,APS,5885,0,FOOD,0,0,,2605 N 15th Ave,33.47595,-112.08967
Christy Cove Park,Parks,2020,0,APS,5936,0,PARK,0,0,,2352 E Christy Dr,33.58552,-112.03147
Dreamy Draw Recreation Area,Parks,2020,0,APS,6210,0,OUTDOORREC,0,0,,2421 E Northern Ave,33.56441,-112.02914
Norton Small Building,Parks,2020,0,APS,6301,0,UNKNOWN,700,0,28.27,2700 N 15th Ave,33.47704,-112.09226
Adobe Mountain Park,Parks,2020,0,APS,6644,0,PARK,0,0,,3410 W Crest Dr,33.68894,-112.13151
27th Ave & Baseline Park & Ride,Public Transit,2020,8,SRP,6956,38,TRANSPORTATIONTE,0,0,,2832 W Baseline Rd,33.37713,-112.11822
Echo Canyon Trailhead,Parks,2020,0,APS,7036,0,PARK,0,0,,4925 E McDowell Rd,33.51481,-111.96172
24th St Fuel Island,Police,2020,0,SRP,7205,3,OTHERUTILITY,0,0,,6206 N 24th St,33.52774,-112.02968
Indian Bend Park,Parks,2020,0,APS,7256,0,PARK,0,0,,13644 N 37th Pl,33.6119,-112.00198
Kachina Park,Parks,2020,0,SRP,7539,6,PARK,0,0,,4304 E Campbell Ave,33.50287,-111.99019
Hilaria Rodriguez Park,Parks,2020,0,APS,7843,0,PARK,0,0,,2801 E Adams St,33.44905,-112.02107
PHX Hangar 7,Aviation,2020,0,APS,8171,0,HANGAR,3256,0,7.88,2447 E Air Ln,33.44369,-112.02802
Harmon Pool,Parks,2020,0,APS,8361,0,SWIMMINGPOOL,7422,605,11.69,1425 S 5th Ave,33.43465,-112.07977
Falcon Pool,Parks,2020,0,APS,8369,18,SWIMMINGPOOL,0,0,,3420 W Roosevelt St,33.45977,-112.13316
Sumida Park,Parks,2020,0,APS,8452,0,PARK,0,0,,1809 E Gardenia Ave,33.54389,-112.04292
Trail 44 Ranger Station,Parks,2020,0,APS,8625,0,Other - Services,2000,0,13.55,10600 N 7th St,33.5816,-112.06607
PHX Building 132,Aviation,2020,0,APS,8722,0,OFFICE,3850,0,7.12,2627 E Air Ln,33.44349,-112.02468
Lewis Park,Parks,2020,0,APS,9034,0,PARK,0,0,,1238 S 13th Pl,33.43573,-112.05351
Washington Pool,Parks,2020,0,SRP,9185,29,SWIMMINGPOOL,15915,0,1.81,6655 N 23rd Ave,33.5344,-112.10736
John W Teets Park,Parks,2020,0,APS,9193,0,PARK,0,0,,4380 E Ramuda Dr,33.72144,-111.98791
Perry Park,Parks,2020,0,SRP,9861,280,PARK,0,0,,2626 N 32nd St,33.47746,-112.01373
Cholla Cove Park,Parks,2020,0,APS,10408,0,PARK,0,0,,4121 E Lupine Ave,33.59054,-111.99075
PHX Building 135,Aviation,2020,0,APS,10417,1,RESTAURANT,4297,0,7.61,2633 E Air Ln,33.44301,-112.02421
Colter Park,Parks,2020,0,APS,10507,7,PARK,0,0,,902 W Colter St,33.51347,-112.08475
Sandpiper Park,Parks,2020,0,APS,10885,0,PARK,0,0,,6530 E Hearn Rd,33.61587,-111.93977
Sahuaro West,Housing,2020,0,APS,10979,0,MULTIHOUSING,0,0,,1650 W Sahuaro Dr,33.58414,-112.09462
North Mountain Ramadas,Parks,2020,0,APS,11180,0,Other - Rec,0,0,,10600 N 7th St,33.58312,-112.06631
Altadena Park,Parks,2020,0,APS,11796,0,PARK,0,0,,3711 E Altadena Ave,33.59216,-112.00119
Conocido Park,Parks,2020,0,APS,12332,0,PARK,0,0,,15645 N 31st Dr,33.63114,-112.12598
Madison Pool,Parks,2020,0,APS,12544,8,SWIMMINGPOOL,15522,0,2.54,1440 E Glenrosa Ave,33.49941,-112.04877
Westown Park,Parks,2020,0,APS,12921,64,PARK,0,0,,12635 N 33rd Ave,33.6013,-112.12953
Reflections at Portland,Housing,2020,0,APS,12980,0,MULTIHOUSING,0,0,,201 E Portland St,33.45975,-112.07087
Pinnacle Dog Park,Parks,2020,0,APS,13704,14,PARK,0,0,,20900 N Black Mountain Blvd,33.67615,-112.00671
Paradise Cove Park,Parks,2020,0,APS,13850,0,PARK,0,0,,3930 E Monte Cristo Ave,33.63243,-111.99811
Werner's Field Park,Parks,2020,0,APS,14035,0,PARK,0,0,,17831 N 7th Ave,33.64811,-112.0813
Sunburst Paradise Park,Parks,2020,0,APS,14224,0,PARK,0,0,,16225 N 47th Ave,33.63368,-112.15878
PHX Building 128,Aviation,2020,0,APS,14232,0,HANGAR,29643,0,1.51,2535 E Air Ln,33.44297,-112.02706
DVT Police Hangar,Aviation,2020,0,APS,14349,0,HANGAR,0,0,,720 W Deer Valley Dr,33.68649,-112.07334
Orme Park,Parks,2020,0,SRP,14939,16,PARK,0,0,,3201 N 47th Pl,33.4861,-112.16076
Paradise Village,Housing,2020,41,APS,15040,0,MULTIHOUSING,0,0,,2520 E Aire Libre Ave,33.63725,-112.02788
GY Building 56,Aviation,2020,0,APS,15067,0,UNKNOWN,0,0,,1658 S Litchfield Rd,N/A,N/A
North Ranger Station Shop,Parks,2020,0,APS,15274,0,REPAIRSERVICES,11200,0,4.28,2245 W Greenway Rd,33.62399,-112.10658
Quail Run Basin Park,Parks,2020,0,APS,16289,0,PARK,0,0,,18434 N 12th St,33.65427,-112.05752
Acoma Park,Parks,2020,0,APS,16754,0,PARK,0,0,,14421 N 39th Ave,33.61668,-112.14236
Piestewa Peak,Parks,2020,0,APS,16856,2,OUTDOORREC,0,0,,2701 E Squaw Peak Dr,33.54272,-112.01545
Desert Star Park,Parks,2020,0,SRP,17040,19,PARK,0,0,,8550 W Encanto Blvd,33.47294,-112.24456
PHX Building 143,Aviation,2020,0,APS,17074,0,HANGAR,0,0,,3701 E Air Ln,33.44252,-112.00148
Dove Valley Park,Parks,2020,0,APS,17678,0,PARK,0,0,,4740 E Rancho Paloma Dr,33.78624,-111.97902
Hoshoni Park,Parks,2020,0,SRP,18068,23,PARK,0,0,,8515 N 39th Ave,33.56081,-112.1447
The Bungalow,Parks,2020,0,APS,18166,0,MUSEUM,0,0,,622 E Adams St,33.44954,-112.06598
Historic Fire Station 8,Fire,2020,0,APS,18214,0,OFFICE,2250,56,27.92,541 W Encanto Blvd,33.47275,-112.08255
Nueve Park,Parks,2020,0,SRP,19229,101,PARK,0,0,,4445 S 9th St,33.40521,-112.05937
Ma-Ha Tuak Park,Parks,2020,0,SRP,19883,28,PARK,0,0,,9832 S 7th Ave,33.35721,-112.08417
Bloomfield Warehouse,Parks,2020,0,APS,19977,0,WAREHOUSE-UNREFR,2654,651,48.17,3201 E Bloomfield Rd,33.59954,-112.01282
La Cascada I,Housing,2020,0,APS,20508,0,MULTIHOUSING,55798,0,1.15,248 E Ruth Ave,33.56336,-112.06982
Sherman Parkway,Parks,2020,0,APS,21008,0,PARK,0,0,,2124 W Sherman St,33.44036,-112.10374
Jackrabbit Basin,Parks,2020,0,APS,21076,0,PARK,0,0,,6002 E Paradise Ln,33.63369,-111.94968
Washington Warehouse,Aviation,2020,0,APS,21251,0,WAREHOUSE-UNREFR,0,0,,2949 E Washington St,33.44773,-112.01764
Encanto Park Restrooms,Parks,2020,0,APS,21561,0,OTHER,800,0,84.66,2605 N 15th Ave,33.47153,-112.08988
Desert Willow Park,Parks,2020,0,APS,21625,0,PARK,0,0,,4040 E Desert Willow Pkwy W,33.76504,-111.99383
Vista Canyon Park,Parks,2020,0,SRP,21680,23,PARK,0,0,,16020 S 30th St,33.29935,-112.02032
Shop - Adobe,Parks,2020,0,APS,22601,0,REPAIRSERVICES,2550,0,27.84,4619 E Washington St,33.44739,-111.98422
Coyote Basin Park,Parks,2020,0,APS,23022,0,PARK,0,0,,2730 E Beardsley Rd,33.67103,-112.02516
Sunridge Park,Parks,2020,0,SRP,23035,17,PARK,0,0,,6201 W Roosevelt St,33.45772,-112.19421
Burn Building,Fire,2020,0,APS,23193,0,OTHER,8000,0,9.11,2425 W Lower Buckeye Rd,33.41896,-112.11099
Happy Valley Park & Ride,Public Transit,2020,30,APS,23223,0,TRANSPORTATIONTE,0,0,,24725 N 29th Ave,33.7103,-112.12055
Nuestro Park,Parks,2020,0,APS,23908,0,PARK,0,0,,1433 S 9th St,33.4336,-112.06169
Surrey Park,Parks,2020,0,APS,24358,0,PARK,0,0,,3835 W Joan De Arc Ave,33.60661,-112.14161
Palma Park,Parks,2020,0,APS,24663,76,PARK,0,0,,1135 E Dunlap Ave,33.56681,-112.05752
Tramonto Park,Parks,2020,0,APS,24929,0,PARK,0,0,,35425 N 32nd Dr,33.80608,-112.12845
Cave Creek Park - Sand Lilly,Parks,2020,0,APS,25073,0,PARK,0,0,,2500 W Cactus Rd,33.59307,-112.11401
Sunnyslope Pool,Parks,2020,0,APS,25597,28,SWIMMINGPOOL,4524,98,19.94,325 W Dunlap Ave,33.56708,-112.07876
Edison Park,Parks,2020,0,APS,26043,0,PARK,0,0,,901 N 19th St,33.45818,-112.04035
Royal Palm Park,Parks,2020,0,SRP,26358,50,PARK,0,0,,8405 N 15th Ave,33.5589,-112.08975
Western Star Park,Parks,2020,0,SRP,26360,37,PARK,0,0,,10419 S 48th St,33.35366,-111.98689
Jackson Warehouse,Aviation,2020,0,APS,26494,0,WAREHOUSE-UNREFR,0,0,,3332 E Jackson St,33.44555,-112.00889
Pioneer and Military Memorial Park,Parks,2020,0,APS,26698,0,CEMETERY,2684,0,31.24,1317 W Jefferson St,33.44662,-112.09043
North West Division Office,Parks,2020,0,SRP,27599,11,OFFICE,16652,210,6.47,3901 W Glendale Ave,33.53805,-112.14322
Lookout Mountain Park,Parks,2020,0,APS,28187,0,PARK,0,0,,14441 N 18th St,33.6178,-112.04276
Mariposa Park,Parks,2020,0,SRP,28249,44,PARK,0,0,,3150 W Morten Ave,33.54853,-112.12773
Mountain View Park,Parks,2020,0,APS,29580,0,PARK,0,0,,9901 N 7th Ave,33.57708,-112.08151
PHX Building 137,Aviation,2020,0,APS,29788,0,HANGAR,4700,0,19.91,2637 E Air Ln,33.44363,-112.02372
PCC Tonto Marhalling Yard,Convention,2020,0,APS,30714,0,PARKING,0,0,,1102 E Tonto St,33.43824,-112.0585
Turtle Rock Basin,Parks,2020,0,APS,30869,0,PARK,0,0,,17414 N 12th St,33.64484,-112.05908
GY ST Hanger,Aviation,2020,0,APS,30904,0,HANGAR,0,0,,1658 S Litchfield Rd,N/A,N/A
Francisco Highland park,Parks,2020,0,SRP,31010,29,PARK,0,0,,2702 E South Mountain Ave,33.37122,-112.02404
Grover's Basin Park,Parks,2020,0,APS,31231,0,PARK,0,0,,17447 N 20th St,33.64746,-112.03596
Trailside Point Park,Parks,2020,0,SRP,31232,40,PARK,0,0,,7215 W Vineyard Rd,33.38516,-112.21259
Long Homestead Park,Parks,2020,0,SRP,31542,19,PARK,0,0,,2602 W Glendale Ave,33.53956,-112.11462
PHX Building 122,Aviation,2020,0,APS,31699,0,HANGAR,3600,0,27.66,2535 E Air Ln,33.443,-112.02836
Arcadia Park,Parks,2020,0,SRP,31806,245,PARK,0,0,,3402 N 56th St,33.48821,-111.96215
Sahuaro Yard,Parks,2020,0,APS,32167,0,REPAIRSERVICES,7636,0,13.23,1602 E Sahuaro Dr,33.58498,-112.04744
Eastlake Pool,Parks,2020,0,APS,32663,0,SWIMMINGPOOL,9206,50,11.69,1549 E Jefferson St,33.44643,-112.04836
Nevitt Park,Parks,2020,0,SRP,32706,10,PARK,0,0,,6823 S 44th Way,33.3861,-111.9838
Heritage Parking Garage,Parks,2020,0,APS,32743,0,PARKING,0,0,,123 N 5th St,33.44995,-112.06653
North Ranger Station Office,Parks,2020,0,APS,32966,0,OFFICE,3500,0,29.58,2245 W Greenway Rd,33.62499,-112.10751
Stevens-Haustgen House,Parks,2020,0,APS,33028,0,MUSEUM,0,0,,614 E Adams St,33.44959,-112.06584
Shemer Art Center & Museum,Parks,2020,0,SRP,33500,34,ARTCENTER,5425,932,36.58,5005 E Camelback Rd,33.50502,-111.97213
Tenth St Wash Park,Parks,2020,0,APS,33557,0,PARK,0,0,,1001 E Townley Ave,33.56552,-112.05983
Solano Park,Parks,2020,0,SRP,33763,96,PARK,0,0,,5625 N 17th Ave,33.51887,-112.09423
Fire Station 21,Fire,2020,0,APS,33943,24,FIRESTATION,4636,660,37.23,1212 S 27th Ave,33.43622,-112.11767
Desert Storm Park,Parks,2020,0,SRP,33975,27,PARK,0,0,,1700 E Colter St,33.51371,-112.04558
Rosson House,Parks,2020,0,APS,34203,0,MUSEUM,0,0,,115 N 6th St,33.4502,-112.06591
Playa Margarita Park,Parks,2020,0,SRP,34839,101,PARK,0,0,,3615 W Roeser Rd,33.399,-112.1362
Alkire Pool,Parks,2020,0,APS,34912,0,SWIMMINGPOOL,0,58,,1602 W Pima St,33.43366,-112.09504
Laveen Village Park,Parks,2020,0,SRP,35967,42,PARK,0,0,,3146 W Vineyard Rd,33.38447,-112.12682
Encanto District Office,Parks,2020,0,APS,36867,0,OFFICE,4800,0,24.12,2300 N 17th Ave,33.47344,-112.09679
Tovrea Castle at Carraro Heights,Parks,2020,0,APS,36966,0,MUSEUM,5400,0,21.5,5025 E Van Buren St,33.4482,-111.97172
Kuban park,Parks,2020,0,APS,36981,0,PARK,0,0,,3275 W Sherman St,33.43972,-112.12941
GR Herberger Park,Parks,2020,0,SRP,37340,54,PARK,0,0,,5802 E Indian School Rd,33.49093,-111.95666
Winship House,Parks,2020,0,APS,37714,0,OFFICE,0,0,,216 W Portland St,33.46027,-112.07718
Encanto 9-Hole Pro Shop,Golf,2020,0,APS,37915,0,Retail,3475,489,48.34,2308 N 17th Ave,33.47393,-112.09625
Muriel Smith Rec Center,Parks,2020,0,SRP,37978,50,COMMUNITYCENTER,0,0,,2230 W Roeser Rd,33.39899,-112.10557
Paradise Valley Transit Center,Public Transit,2020,0,APS,40153,0,TRANSPORTATIONTE,153,0,824.31,4711 E Paradise Village Pkwy N,33.60478,-111.9791
PHX Building 136,Aviation,2020,0,APS,40172,0,HANGAR,4900,0,25.75,2635 E Air Ln,33.44315,-112.02373
Thomas House,Parks,2020,0,APS,40201,0,RESTAURANT,0,0,,609 E Adams St,33.44918,-112.06586
Norton House,Parks,2020,0,APS,40264,0,OFFICE,0,0,,2700 N 15th Ave,33.4772,-112.09199
PHX Building 210,Aviation,2020,0,APS,41060,0,REPAIRSERVICES,0,0,,1248 S 25th St,33.43559,-112.02942
Historic Fire Station 25,Fire,2020,0,SRP,41139,16,FIRESTATION,4632,183,31.85,4032 N 59th Ave,33.49385,-112.18681
Palo Verde Pro Shop,Golf,2020,0,SRP,42159,13,RETAIL,3036,0,43.62,6215 N 15th Ave,33.52806,-112.09071
Holiday Park,Parks,2020,0,SRP,42373,64,PARK,0,29,,4530 N 67th Ave,33.50372,-112.20428
Green Valley Park,Parks,2020,0,APS,42951,0,PARK,0,0,,2243 S 14th St,33.42638,-112.05123
Little Canyon Park,Parks,2020,0,SRP,43058,276,PARK,0,0,,3201 W Missouri Ave,33.51582,-112.1284
Bret Tarver Learning Center,Parks,2020,0,APS,43500,22,COMMUNITYCENTER,0,0,,1416 N 35th Ave,33.46571,-112.13493
Central Park,Parks,2020,0,APS,43978,28,PARK,0,0,,140 E Tonto St,33.43868,-112.0719
Dust Devil Park,Parks,2020,7,SRP,44239,71,PARK,0,0,,10645 W Camelback Rd,33.50728,-112.28885
Bouvier-Teeter House,Parks,2020,0,APS,44400,30,RESTAURANT,0,0,,622 E Adams St,33.44961,-112.06566
24th St/Baseline Park & Ride,Public Transit,2020,24,SRP,45988,11,TRANSPORTATIONTE,0,0,,7415 S 24th St,33.37949,-112.02952
Papago Ramadas,Parks,2020,0,SRP,47150,21,OUTDOORREC,0,0,,625 N Galvin Pkwy,33.45484,-111.9473
Valley Garden Center,Parks,2020,0,APS,47491,46,SOCIALMEETINGHAL,0,604,,1809 N 15th Ave,33.46822,-112.09109
Paradise Greens,Housing,2020,0,APS,47520,58,MULTIHOUSING,0,0,,16001 N 25th St,33.6319,-112.02746
Palomino Park,Parks,2020,0,APS,48213,0,PARK,0,0,,15815 N 30th St,33.63005,-112.01667
Mountain View Tennis Center,Parks,2020,0,APS,48521,19,Other - Rec,5000,0,30.48,1118 E Grovers Ave,33.64787,-112.05906
Sweetwater Park,Parks,2020,0,APS,48830,111,PARK,0,0,,13230 N 44th St,33.60572,-111.98705
79th Ave / I-10 Park & Ride,Public Transit,2020,0,SRP,48870,31,TRANSPORTATIONTE,433,0,354.5,7805 W McDowell Rd,33.46503,-112.22855
Sunnyslope Transit Center,Public Transit,2020,0,APS,49266,0,TRANSPORTATIONTE,226,0,684.71,8927 N 3rd St,33.56708,-112.06929
Command Training Center,Fire,2020,0,SRP,49810,20,VOCATIONALSCHOOL,4632,201,38.12,7717 N 27th Ave,33.54993,-112.11661
La Pradera Maintenance Yard,Parks,2020,0,SRP,49902,31,MIXEDUSEPROPERTY,5400,0,29.03,6830 N 39th Ave,33.53757,-112.14326
Fire Driver Training Bldg,Fire,2020,10,APS,50580,0,VOCATIONALSCHOOL,9216,0,17.24,2425 W Lower Buckeye Rd,33.42171,-112.11038
Dynamite Park,Parks,2020,0,APS,50637,34,PARK,0,0,,4550 E Dynamite Blvd,33.73472,-112.13662
Sunnyslope - Youth Center,Parks,2020,0,APS,51420,49,COMMUNITYCENTER,6433,0,25.11,1702 W Peoria Ave,33.58257,-112.09531
Sueno Park,Parks,2020,0,SRP,51565,184,PARK,0,0,,4401 W Encanto Blvd,33.47141,-112.15385
Encanto Park Clubhouse,Golf,2020,0,APS,51726,38,OTHERRECREATION,6783,1180,41.35,2605 N 15th Ave,33.47607,-112.08794
Santa Maria Park,Parks,2020,0,SRP,52245,41,PARK,0,0,,3425 S 71st Ave,33.4176,-112.21139
Metrocenter Park & Ride,Public Transit,2020,0,APS,52341,0,TRANSPORTATIONTE,80,0,2055.03,9451 N Metro Pkwy W,33.57287,-112.12342
DVT Maintenance Bldg West,Aviation,2020,0,APS,53266,38,REPAIRSERVICES,4752,0,35.21,702 W Deer Valley Dr,33.68408,-112.0921
North Mountain Visitor Center,Parks,2020,3,APS,53488,55,MUSEUM,10000,0,16.8,12950 N 7th St,33.59855,-112.06681
PHX Building 127,Aviation,2020,0,APS,54773,30,HANGAR,16947,0,10.15,2505 E Air Ln,33.44364,-112.02734
DVT Hangar 8,Aviation,2020,0,APS,57143,0,HANGAR,0,0,,930 W Deer Valley Dr,33.68455,-112.08645
Baird Machine Shop,Parks,2020,0,APS,58179,18,RESTAURANT,0,0,,623 E Adams St,33.44921,-112.06564
Moon Valley Park,Parks,2020,0,APS,58323,31,PARK,0,0,,502 W Coral Gables Dr,33.62652,-112.0814
PHX Mohave Parking Lot South,Aviation,2020,0,APS,59572,0,PARKING,0,81,,2010 S 24th St,33.42863,-112.03168
PHX Building 123,Aviation,2020,0,APS,60094,40,HANGAR,3600,0,52.43,2535 E Air Ln,33.443,-112.02808
Aguila Golf Pro Shop,Golf,2020,0,SRP,60180,18,RETAIL,6000,0,31.5,8440 S 35th Ave,33.36997,-112.13985
Sereno Park,Parks,2020,0,APS,60303,0,PARK,0,0,,5720 E Sweetwater Ave,33.60605,-111.95786
Fire Station 34,Fire,2020,0,SRP,60649,17,FIRESTATION,5809,153,35.43,50 N 51st Ave,33.44894,-112.16952
27th Ave Landfill,Public Works,2020,0,APS,62086,30,LANDFILL,0,0,,3060 S 27th Ave,33.42025,-112.12489
27th Ave Landfill,Public Works,2020,0,APS,62086,30,LANDFILL,0,0,,3060 S 27th Ave,33.42025,-112.12489
PHX Maintenance Support,Aviation,2020,0,APS,62810,25,REPAIRSERVICES,0,0,,3328 E Jackson St,33.44553,-112.00896
La Pradera Park,Parks,2020,0,SRP,64060,286,PARK,0,0,,6830 N 39th Ave,33.53701,-112.14502
Fire Station 14,Fire,2020,0,APS,64329,0,FIRESTATION,3540,693,76.65,1330 N 32nd Ave,33.46396,-112.12756
DVT Hangar 12,Aviation,2020,0,APS,65651,0,HANGAR,0,0,,702 W Deer Valley Dr,33.68473,-112.07958
Fire Station 06,Fire,2020,0,APS,65883,0,FIRESTATION,4636,568,56.89,368 W Apache St,33.43041,-112.08008
Granada Park,Parks,2020,0,SRP,67472,119,PARK,0,0,,6505 N 20th St,33.53239,-112.0365
Fire Station 13,Fire,2020,0,SRP,67641,20,FIRESTATION,3340,488,78.22,2828 N 47th Pl,33.47884,-111.97863
Grant Pool,Parks,2020,0,APS,67953,50,SWIMMINGPOOL,0,0,,707 S 3rd Ave,33.44085,-112.07665
Police Air Support Hanger,Police,2020,0,APS,68009,0,HANGAR,0,0,,702 W Deer Valley Dr,33.6864,-112.07341
Buffalo Ridge Park,Parks,2020,0,APS,68154,70,PARK,0,0,,19250 N 16th St,33.65983,-112.0464
Desert Broom Park,Parks,2020,0,APS,68725,112,PARK,0,0,,29805 N Cave Creek Rd,33.75205,-111.99397
Monterey Park,Parks,2020,0,APS,69684,0,PARK,0,0,,350 E Oak St,33.47393,-112.06748
Sun Ray Park,Parks,2020,0,SRP,69836,263,PARK,0,0,,4059 E Ray Rd,33.31904,-111.99806
Desert Horizon Park,Parks,2020,0,APS,70134,0,PARK,0,0,,16002 56th St,33.63186,-111.96249
19th Ave Landfill,Public Works,2020,0,APS/SRP,70493,47,LANDFILL,0,0,,1851 W Lower Buckeye Rd,33.41923,-112.09676
19th Ave Landfill,Public Works,2020,0,APS/SRP,70493,47,LANDFILL,0,0,,1851 W Lower Buckeye Rd,33.41923,-112.09676
Surplus Ops,Public Works,2020,0,APS,71093,0,WAREHOUSE-UNREFR,7000,0,31.9,2820 S 22nd Ave,33.42193,-112.10736
Senior Opportunities - West,Human Services,2020,0,APS,71400,35,SENIORCENTER,8000,1167,42.62,1224 S 7th Ave,33.43591,-112.08267
GY TH2,Aviation,2020,0,APS,71832,21,UNKNOWN,0,0,,1658 S Litchfield Rd,N/A,N/A
South Phoenix Youth Center,Parks,2020,0,SRP,71950,32,COMMUNITYCENTER,6976,537,40.09,5245 S 7th St,33.39791,-112.06428
Venturoso Park,Parks,2020,0,APS,72781,0,PARK,0,0,,14425 N 32nd St,33.61708,-112.01147
Encanto Pool,Parks,2020,0,APS,73729,34,SWIMMINGPOOL,14724,0,15.73,2125 N 15th Ave,33.47242,-112.08985
Manzanita Park,Parks,2020,0,SRP,73754,342,PARK,0,0,,5500 S 31st Ave,33.39784,-112.12716
Mtn View Community Center,Parks,2020,0,APS,74357,60,COMMUNITYCENTER,13028,0,17.93,1104 E Grovers Ave,33.64805,-112.05979
Vernell Coleman Rec Center,Parks,2020,0,APS,74498,31,COMMUNITYCENTER,7324,0,31.95,830 W Tonto St,33.43887,-112.08397
SR-51 /  Bell Road Park & Ride,Public Transit,2020,0,APS,74795,0,TRANSPORTATIONTE,0,0,,3535 E Bell Rd,33.63983,-112.00544
Building 3 - Archaeological Repository,Parks,2020,0,APS,75974,22,MUSEUM,3450,0,69.17,4619 E Washington St,33.44677,-111.98579
Desert Foothills Park,Parks,2020,0,SRP,76237,377,PARK,0,0,,1010 E Marketplace SE,33.30573,-112.05969
305 Parking Garage,Public Works,2020,444,APS,76264,238,PARKING,32526,0,7.36,305 Washington St,33.44771,-112.07841
Foothills Court,Housing,2020,0,APS,76297,0,MULTIHOUSING,41613,0,5.76,1606 W Peoria Ave,33.58253,-112.09383
Emergency Vehicle Operations Center,Police,2020,0,SRP,76301,32,TRACK,2600,0,92.18,8645 W Broadway Rd,33.40246,-112.24456
Desert Sky Transit Center,Public Transit,2020,21,SRP,76822,52,TRANSPORTATIONTE,0,0,,7887 W Thomas Rd,33.47913,-112.22875
La Cascada II,Housing,2020,0,APS,76960,31,MULTIHOUSING,55798,0,4.33,229 E Ruth Ave,33.56272,-112.07027
Cactus Park Irrigation Well,Parks,2020,0,APS,76964,162,WELL,0,0,,3101 W Cactus Rd,33.59619,-112.12552
Fire Station 72,Fire,2020,14,APS,77100,30,FIRESTATION,11000,2925,48.61,33027 N Cave Creek Rd,33.78501,-111.97151
Windrose Villas,Housing,2020,0,APS,77328,84,MULTIHOUSING,863850,0,0.28,1520 W Peoria Ave,33.58261,-112.09186
SR-51 / Shea Park & Ride,Public Transit,2020,0,APS,77358,0,TRANSPORTATIONTE,0,0,,10203 N 32nd St,33.58056,-112.01112
Fire Station 07,Fire,2020,0,APS,78261,21,FIRESTATION,4636,681,67.71,403 E Hatcher Rd,33.57124,-112.06814
Fire Station 17,Fire,2020,0,APS,79657,24,FIRESTATION,4636,500,64.75,1531 E Missouri Ave,33.51616,-112.04834
Central Station Transit Center,Public Transit,2020,24,APS,80489,23,TRANSPORTATIONTE,4000,0,63.2,300 N Central Ave,33.45213,-112.0743
Smith Park,Parks,2020,0,APS,81236,76,PARK,0,0,,4030 W Sherman St,33.44146,-112.14643
Kid St Park - Atkinson Rec Cen,Parks,2020,0,SRP,82364,69,PARK,3715,0,69.64,4535 N 23rd Ave,33.50364,-112.10791
Thunderbird Teen Center,Parks,2020,0,APS,82413,46,COMMUNITYCENTER,7500,0,34.51,1106 E Grovers Ave,33.64866,-112.05969
Fire Station 39,Fire,2020,0,SRP,84151,21,FIRESTATION,4200,533,75.62,2276 W Southern Ave,33.39262,-112.10755
Fire Station 22 - Admin,Fire,2020,0,SRP,87439,31,OFFICE,7084,0,38.77,220 E Roeser Rd,33.40015,-112.07042
Fire Station 28,Fire,2020,0,SRP,88797,24,FIRESTATION,5908,706,59.16,7409 S 16th St,33.37928,-112.04683
Fire Station 27,Fire,2020,0,APS,89315,25,FIRESTATION,5908,813,61.25,12449 N 32nd St,33.60042,-112.0128
Fire Station 45,Fire,2020,0,APS,89409,24,FIRESTATION,4200,771,85.22,20030 N 26th St,33.66861,-112.02674
So Mt Env Education Center,Parks,2020,0,SRP,90640,56,MUSEUM,10000,0,28.47,10409 S Central Ave,33.35081,-112.0761
Senior Services Meal Prep Facility,Human Services,2020,0,APS,91440,39,FOODSERVICE,10732,516,31.57,701 W Buchanan St,33.44266,-112.08271
DVT Aircraft Maintenance Bays,Aviation,2020,0,APS,92627,21,REPAIRSERVICES,6888,0,42.24,702 W Deer Valley Dr,33.6849,-112.09206
Fire Station 42,Fire,2020,0,APS,93135,32,FIRESTATION,4597,0,63.64,3246 W Greenway Rd,33.62564,-112.12924
Verde Park Recreation Center,Parks,2020,0,APS,93848,55,PARK,0,0,,916 E Van Buren St,33.4519,-112.06135
Visual Arts Building,Parks,2020,0,APS,94058,61,PERFORMINGARTS,11560,0,25.56,220 E Moreland St,33.46156,-112.07041
Fire Station 48,Fire,2020,0,APS,95434,29,FIRESTATION,7300,0,41.06,5230 W Happy Valley Rd,33.71101,-112.21177
Foothills on the Preserve,Housing,2020,0,APS,95860,23,MULTIHOUSING,0,0,,1525 E Cheryl Dr,33.57746,-112.04936
DVT Hangar 18,Aviation,2020,0,APS,97255,24,HANGAR,15028,0,20.33,700 W Deer Valley Dr,33.68484,-112.07618
Mountain View Pool,Parks,2020,0,APS,97519,398,SWIMMINGPOOL,8170,0,37.49,1104 E Grovers Ave,33.64822,-112.05983
Fire Station 58,Fire,2020,0,SRP,97693,37,FIRESTATION,7200,937,55.63,4718 W Dobbins Rd,33.36339,-112.16121
Adam Diaz Senior Center,Human Services,2020,0,SRP,98240,54,SENIORCENTER,10300,0,29.96,4115 W Thomas Rd,33.48002,-112.148
Fire Station 15,Fire,2020,0,SRP,98458,28,FIRESTATION,4597,0,67.27,4730 N 43rd Ave,33.50634,-112.15196
Fire Station 46,Fire,2020,0,SRP,98585,47,FIRESTATION,4200,0,73.73,15402 E Marketplace Way,33.3068,-112.05216
Rio Salado Parking,Parks,2020,0,APS,98739,50,PARK,0,0,,2801 S 7th Ave,33.42072,-112.08086
El Prado Pool,Parks,2020,0,SRP,98798,60,SWIMMINGPOOL,12142,0,25.56,6428 S 19th Ave,33.38697,-112.10165
Fire Station 23,Fire,2020,0,SRP,99520,28,FIRESTATION,7091,755,54.73,4416 S 32nd St,33.40592,-112.01316
Fire Station 31,Fire,2020,0,APS,99837,28,FIRESTATION,4597,0,68.22,5730 E Thunderbird Rd,33.61189,-111.95749
Desert Meadows,Housing,2020,0,APS,100709,37,MULTIHOUSING,0,0,,16819 N 42nd Ave,33.63726,-112.14788
2705 Building,Parks,2020,0,APS,101383,44,Office,2160,0,147.43,2705 N 15th Ave,33.47702,-112.09021
PHX 42nd St Employee Lot,Aviation,2020,0,APS,101454,49,PARKING,0,0,,4000 E Sky Harbor Blvd,33.43801,-111.9866
Coronado Pool,Parks,2020,0,APS,103490,0,SWIMMINGPOOL,0,0,,1717 N 12th St,33.46758,-112.05589
DVT Hangar 22,Aviation,2020,0,APS,107726,28,HANGAR,15028,0,22.52,702 W Deer Valley Dr,33.68487,-112.07599
Salt River SC Storage,Public Works,2020,0,APS,108182,41,WAREHOUSE-UNREFR,2300,0,147.74,3045 S 22nd Ave,33.41941,-112.10409
Hayden Park,Parks,2020,0,SRP,108374,272,PARK,0,0,,322 W Tamarisk St,33.40492,-112.07888
Fire Station 40,Fire,2020,0,SRP,109184,27,FIRESTATION,7091,1191,65.16,3838 N 83rd Ave,33.49143,-112.23818
Cave Creek Park - Cholla,Parks,2020,0,APS,109493,145,PARK,0,0,,2505 W Cholla St,33.58927,-112.11324
Fire Station 49,Fire,2020,0,APS,109697,44,FIRESTATION,7200,0,47.86,3750 E Dynamite Blvd,33.74146,-111.99608
DVT Hangar 27,Aviation,2020,0,APS,109719,24,HANGAR,14892,0,23.14,702 W Deer Valley Dr,33.6931,-112.0808
I-17 / Bell Park & Ride,Public Transit,2020,0,APS,110112,21,TRANSPORTATIONTE,293,0,1180.41,16808 N Black Canyon Hwy,33.63888,-112.11787
Fire Station 05,Fire,2020,0,APS,110200,27,FIRESTATION,6466,893,67.34,1840 E Cambridge Ave,33.47784,-112.04171
Fire Station 20,Fire,2020,0,APS,112428,34,FIRESTATION,3425,327,112.65,726 W Glendale Ave,33.53881,-112.08345
Esteban Park,Parks,2020,0,SRP,113229,631,PARK,0,0,,3345 E Roeser Rd,33.39807,-112.00995
Deck Park Vista,Housing,2020,0,APS,114629,21,MULTIHOUSING,46480,0,7.75,1125 N 3rd St,33.46104,-112.06836
Acacia Library,Library,2020,0,APS,114779,47,LIBRARY,6600,0,54.62,746 E Townley Ave,33.5661,-112.06436
Sand Dollar,Housing,2020,0,APS,115054,0,MULTIHOUSING,0,0,,18410 N 27th Ave,33.65324,-112.11764
Fire Station 16,Fire,2020,0,APS,115819,39,FIRESTATION,12291,586,34.37,1414 E Mohave St,33.43184,-112.05141
Fire Station 55,Fire,2020,0,APS,116427,62,FIRESTATION,12000,0,30.47,26700 N 27th Ave,33.72622,-112.11739
Fire Station 35,Fire,2020,0,APS,116664,35,FIRESTATION,7162,504,58.2,646 E Paradise Ln,33.63331,-112.06592
Cave Creek Golf Clubhouse,Golf,2020,0,APS,116706,30,RETAIL,0,0,,15202 N 19th Ave,33.61719,-112.10638
E. McLoughlin Comm Center,Housing,2020,0,APS,116760,60,OFFICE,10200,60,36.54,1150 S 7th Ave,33.43726,-112.08301
Circle K Park,Parks,2020,0,SRP,117255,246,PARK,0,0,,1346 E South Mountain Ave,33.37113,-112.0552
Fire Station 24,Fire,2020,0,SRP,117293,32,FIRESTATION,6016,424,68.29,2602 N 43rd Ave,33.47709,-112.15208
Fire Station 38,Fire,2020,0,SRP,118182,28,FIRESTATION,7200,847,63.32,5002 E Warner Rd,33.33296,-111.9786
Ocotillo Library,Library,2020,0,SRP,118201,57,LIBRARY,6600,0,56.25,102 W Southern Ave,33.3927,-112.07468
Shadow Mountain Senior Center,Human Services,2020,0,APS,120240,57,SENIORCENTER,10800,0,34.97,3546 E Sweetwater Ave,33.60222,-112.17414
Deer Valley Pool,Parks,2020,0,APS,121351,28,SWIMMINGPOOL,60000,0,6.35,19400 N 19th Ave,33.66281,-112.10041
Fire Station 33,Fire,2020,0,APS,122751,58,FIRESTATION,5809,997,83.54,2409 W Cactus Rd,33.59628,-112.11111
Fire Station 36,Fire,2020,0,APS,123859,34,FIRESTATION,7091,688,64.57,21602 N 9th Ave,33.68197,-112.08565
Deem Hills Rec Area,Parks,2020,0,APS,124511,209,PARK,0,0,,5050 W Andrea Ln,33.72783,-112.16649
FEMA Warehouse,Fire,2020,0,APS,124910,83,WAREHOUSEUR,20300,0,19.33,2450 S 22nd Ave,33.47471,-112.10744
Fire Station 04,Fire,2020,0,APS,125566,43,FIRESTATION,7162,997,68.99,1601 N 3rd Ave,33.46609,-112.07803
PHX West Economy Parking Lot,Aviation,2020,0,APS,126575,33,PARKING,0,0,,2910 E Buckeye Rd,33.4363,-112.01935
Fire Station 37,Fire,2020,0,APS,126766,30,FIRESTATION,6194,0,64.28,16602 N 40th St,33.63735,-111.99459
Fire Station 26,Fire,2020,0,SRP,128126,32,FIRESTATION,5908,919,83.67,3301 W Rose Ln,33.52718,-112.13036
Fire Station 22,Fire,2020,0,SRP,131116,34,FIRESTATION,6016,419,75.42,230 E Roeser Rd,33.39989,-112.07017
East District Office,Parks,2020,0,SRP,132321,107,MIXEDUSEPROPERTY,11708,0,35.5,1001 N 52nd St,33.45905,-111.96926
South Mountain Detectives Building,Police,2020,0,SRP,132571,41,OFFICE,5941,1313,92.19,400 W Southern Ave,33.39272,-112.07889
Century Library,Library,2020,0,SRP,132810,54,LIBRARY,6915,0,60.33,1750 E Highland Ave,33.50615,-112.04354
Cave Creek Park - Cactus,Parks,2020,0,APS,133457,0,PARK,0,0,,2400 W Cactus Rd,33.59789,-112.11078
PHX Tonto East Parking,Aviation,2020,0,APS,133488,36,PARKING,0,0,,986 S 24th St,33.43884,-112.03219
Traffic Services Bldg,Streets,2020,0,APS,135371,97,OFFICE,29900,676,16.48,1101 E Jefferson St,33.44692,-112.05868
University Pool,Parks,2020,0,APS,135661,28,SWIMMINGPOOL,5352,400,87.09,1002 W Van Buren St,33.45236,-112.08739
El Oso Park,Parks,2020,0,SRP,136474,215,PARK,0,0,,3451 N 75th Ave,33.48808,-112.21857
Driver Training Bldg with Offices,Public Works,2020,0,APS,138858,36,OFFICE,9255,0,47.13,3535 S 35th Ave,33.41483,-112.12974
GY Building 48,Aviation,2020,0,APS,139738,44,UNKNOWN,0,0,,1658 S Litchfield Rd,N/A,N/A
Helen Drake Senior Center,Human Services,2020,40,SRP,140924,92,SENIORCENTER,12766,0,34.67,7600 N 27th Ave,33.54836,-112.11773
Sign Shop,Streets,2020,0,SRP,142474,56,REPAIRSERVICES,11456,0,39.06,4035 W Glenrosa Ave,33.49831,-112.14723
Neighborhood Resource Center,Police,2020,0,SRP,143486,33,POLICESTATION,7300,0,61.74,2405 E Broadway Rd,33.40613,-112.10959
40th St  /  Pecos Park Transit Center,Public Transit,2020,100,SRP,145245,110,TRANSPORTATIONTE,366,0,1246.49,17010 S 40th St,33.29352,-111.99825
Fire Station 11,Fire,2020,0,APS,145903,43,FIRESTATION,6016,690,87.65,2727 E Roosevelt St,33.45814,-112.02274
Lath House Pavilion,Parks,2020,0,APS,147835,47,SOCIALMEETINGHAL,0,0,,601 E Monroe St,33.45008,-112.06548
Fire Station 56,Fire,2020,0,APS,149622,48,FIRESTATION,14000,1138,41.7,3210 W Canotia Pl,33.80107,-112.1289
Broadway Heritage Resource Ctr,Neighborhood,2020,0,SRP,150480,58,LIFESTYLECENTER,13500,2974,57.04,2405 E Broadway Rd,33.40613,-112.10959
Fire Station 61,Fire,2020,0,APS,150611,38,FIRESTATION,12000,1079,48.41,1925 E Indian School Rd,33.49423,-112.04006
Barrios Unidos Park,Parks,2020,0,APS,153331,106,PARK,0,0,,1501 E Mohave St,33.43034,-112.05072
Fire Station 60,Fire,2020,0,SRP,153452,40,FIRESTATION,9500,1479,66.3,2405 W Townley Ave,33.56523,-112.111
Fire Station 10,Fire,2020,0,APS,155319,42,FIRESTATION,9556,411,55.35,2731 N 24th Dr,33.47881,-112.11133
Longview Neighborhood Rec Center,Parks,2020,0,APS,158280,62,COMMUNITYCENTER,13855,0,35.88,4040 N 14th St,33.49426,-112.05192
Marivue Park,Parks,2020,0,SRP,162979,281,PARK,0,0,,5625 W Osborn Rd,33.48597,-112.18
Harmon Gym,Parks,2020,0,APS,165116,107,FITNESSCENTERGYM,12300,0,42.16,1425 S 5th Ave,33.43485,-112.08016
DVT Hangar 36,Aviation,2020,0,APS,165914,35,HANGAR,14892,0,34.99,22500 N 4th Ave,33.69309,-112.0805
Fire Station 54,Fire,2020,0,SRP,166422,101,FIRESTATION,14000,1061,44.92,9820 W Campbell Ave,33.50172,-112.2707
Fire Station 52,Fire,2020,0,APS,166766,46,FIRESTATION,13700,1481,49.04,21650 N Tatum Blvd,33.68302,-111.97696
Sunnyslope Community Cntr - Main,Parks,2020,100,APS,167677,54,COMMUNITYCENTER,13273,0,39.68,802 E Vogel Ave,33.57334,-112.06303
Fire Station 44,Fire,2020,0,SRP,168599,46,FIRESTATION,7396,645,80.32,7117 W Mcdowell Rd,33.46532,-112.21242
Sunnyslope Comm Cntr - Gym,Parks,2020,0,APS,169711,58,GYM_STADIUM,13273,0,40.16,802 E Vogel Ave,33.57334,-112.06303
DVT Hangar 45,Aviation,2020,0,APS,170400,34,HANGAR,14892,0,35.94,702 W Deer Valley Dr,33.69315,-112.07705
Ed Pastor Transit Center,Public Transit,2020,0,SRP,170821,106,TRANSPORTATIONTE,13572,0,39.53,10 W Broadway Rd,33.40706,-112.07444
Phoenix Center for the Arts,Parks,2020,0,APS,171427,86,ARTCENTER,22344,1275,29.8,1202 N 3rd St,33.46166,-112.06988
PHX Tonto West Parking,Aviation,2020,0,APS,172766,44,PARKING,0,0,,2325 E Sky Harbor Cir North,33.44089,-112.03578
Book Mobile Warehouse,Library,2020,0,APS,173330,104,WAREHOUSE-UNREFR,0,0,,1330 N 29th Dr,33.46341,-112.12331
John F Long  Family Services Center,Human Services,2020,0,SRP,174120,120,OFFICE,18459,0,29.63,3454 N 51st AVE,33.48969,-112.17083
David Uribe Pool,Parks,2020,0,APS,174419,47,SWIMMINGPOOL,0,31079,,3801 W Cactus Rd,33.59457,-112.14073
Fire Station 57,Fire,2020,0,SRP,174533,59,FIRESTATION,14000,2800,59.16,1660 W Dobbins Rd,33.36516,-112.09402
Maryvale Pool,Parks,2020,15,SRP,176704,31,SWIMMINGPOOL,0,59,,4444 N 51st Ave,33.50138,-112.16957
Mountain Park Ranch,Parks,2020,0,SRP,177499,147,PARK,0,0,,15325 S Mountain Pkwy,33.30862,-111.99966
Yucca Library,Library,2020,0,SRP,179162,67,LIBRARY,10000,0,56.27,5648 N 15th Ave,33.51988,-112.09158
McDowell Senior Center,Human Services,2020,0,APS,183640,81,ADULTEDUCATION,10223,2978,85.55,1845 E McDowell Rd,33.46524,-112.04143
Fire Station 18,Fire,2020,0,SRP,184069,46,FIRESTATION,11600,1370,61.65,5019 N 23rd Ave,33.51043,-112.10784
Fire Station 08,Fire,2020,0,APS,184624,45,FIRESTATION,11957,1324,59.57,1025 E Polk St,33.45261,-112.05925
Housing Admin Bldg,Housing,2020,0,APS,186080,74,OFFICE,17152,0,34.08,870 E Jefferson St,33.44733,-112.06271
Desert Broom Library,Library,2020,0,APS,187634,79,LIBRARY,15000,0,39.29,29710 N Cave Creek Rd,33.75394,-111.99375
Telephone Pioneer Park,Parks,2020,0,APS,188139,73,PARK,0,0,,1946 W Morningside Dr,33.6492,-112.10168
Fire Station 59,Fire,2020,18,SRP,191742,60,FIRESTATION,21000,1241,34.59,1111 S 65th Ave,33.43776,-112.19748
Saguaro LIbrary,Library,2020,0,SRP,191800,59,LIBRARY,10500,1266,69.43,2808 N 46th St,33.47872,-111.98299
Fire Station 32,Fire,2020,0,SRP,192443,56,FIRESTATION,15403,941,45.35,7620 S 42nd Pl,33.37724,-111.99272
Papago Sports Complex,Parks,2020,0,SRP,193986,842,OTHERSTADIUM,31426,0,19.39,1802 N 64th St,33.46879,-111.94507
Starlight Pool,Parks,2020,0,SRP,194832,103,SWIMMINGPOOL,6773,0,90.35,7810 W Osborn Rd,33.48796,-112.22839
Planning & Development Bldg,Public Works,2020,0,APS,196011,82,OFFICE,15950,234,40.07,438 W Adams Street,33.44962,-112.07979
Pierce Park,Parks,2020,0,SRP,197236,329,PARK,0,0,,4501 E Oak St,33.47137,-111.9839
A.E. England Building,Parks,2020,53,APS,198866,131,SOCIALMEETINGHAL,25400,0,24.59,424 N Central Ave,33.45322,-112.07424
Sunnyslope Police Station,Police,2020,0,APS,201508,68,POLICESTATION,7852,0,80.61,750 W Peoria Ave,33.58277,-112.08305
Fire Station 03,Fire,2020,0,APS,203287,52,FIRESTATION,11600,653,60.67,1257 W Pierce St,33.45574,-112.09092
Fire Station 12,Fire,2020,0,SRP,203304,51,FIRESTATION,13499,1349,57.3,4247 N 32nd St,33.49858,-112.01238
Glenrosa Solid Waste Bldg,Public Works,2020,0,SRP,203456,58,OFFICE,12000,608,58.32,4020 W Glenrosa Ave,33.49905,-112.1463
Eastlake Comm Ctr & Gym,Parks,2020,10,APS,204895,90,FITNESSCENTERGYM,19428,0,33.13,1545 E Jefferson St,33.44706,-112.04909
Roosevelt Pool,Parks,2020,0,SRP,208293,62,SWIMMINGPOOL,12210,56,54.04,6246 S 7th St,33.38896,-112.06573
Fire Station 29,Aviation,2020,0,APS,208871,50,FIRESTATION,22000,1371,36.05,3949 E Air Ln,33.44383,-112.01552
PHX City Hangar,Aviation,2020,0,APS,211824,58,HANGAR,31407,0,21.18,2725 E Air Ln,33.44334,-112.02276
Cielito Pool,Parks,2020,0,SRP,213187,413,SWIMMINGPOOL,0,0,,3402 W Campbell Ave,33.50333,-112.13226
Fire Station 09,Fire,2020,0,APS,215977,54,FIRESTATION,10940,1750,78.01,330 E Fairmount Ave,33.49329,-112.06836
Heritage Garage,Convention,2020,0,APS,220567,48,PARKING,0,0,,125 N 5th St,33.44993,-112.06693
GY Terminal,Aviation,2020,0,APS,224594,27,TRANSPORTATIONTE,0,0,,1658 S Litchfield Rd,N/A,N/A
Mountain Vista Park,Parks,2020,0,SRP,225366,667,PARK,0,0,,13647 S 50th St,33.32304,-111.97582
Facilities Management Bldg,Public Works,2020,100,APS,228353,91,OFFICE,35235,2251,26.74,2631 S 22 Ave,33.42323,-112.10512
Ironwood Library,Library,2020,0,SRP,228943,81,LIBRARY,16300,0,44.12,4333 E Chandler Blvd,33.30481,-111.98986
Desert Sage Library,Library,2020,0,SRP,230075,97,LIBRARY,13400,0,53.93,7602 W Encanto Blvd,33.47394,-112.22359
Sunnyslope Family Services Center,Human Services,2020,0,APS,234880,88,OFFICE,18459,0,39.97,914 W Hatcher Rd,33.57226,-112.08567
DVT Terminal,Aviation,2020,0,APS,239069,66,TRANSPORTATIONTE,0,1398,,702 W Deer Valley Dr,33.68551,-112.08303
Fire Station 50,Fire,2020,0,APS,239656,64,FIRESTATION,13700,1394,65.12,20225 N 35Th Ave,33.67053,-112.13404
Cortez Park Pool,Parks,2020,0,SRP,241941,103,SWIMMINGPOOL,0,0,,3434 W Dunlap Ave,33.568,-112.13253
PHX Executive Terminal,Aviation,2020,0,APS,243909,53,OFFICE,8334,100,93.13,2908 E Sky Harbor Blvd,33.43787,-112.01944
Graffiti Warehouse,Neighborhood,2020,0,APS,245018,78,WAREHOUSE-UNREFR,24925,0,30.88,3325 W Flower St,33.48479,-112.12978
PHX RCC Small Ops,Aviation,2020,0,APS,245078,80,PARKING,7860,0,97.94,1712 E Rental Car Way,33.42848,-112.04558
Juniper LIbrary,Library,2020,0,APS,247648,97,LIBRARY,14435,0,53.89,1825 W Union Hills Dr,33.65456,-112.09805
Encanto Maintenance and Warehouse,Parks,2020,0,APS,250259,67,REPAIRSERVICES,42090,1094,21.27,1802 W Encanto Blvd,33.47386,-112.09774
Fire Station 25,Fire,2020,0,SRP,256199,70,FIRESTATION,16450,1750,59.56,4010 N 63rd Ave,33.49352,-112.19563
Desert Horizon Precinct,Police,2020,0,APS,261158,88,POLICESTATION,14866,3010,75.43,16030 N 56th St,33.63229,-111.95987
Harmon Library,Library,2020,0,APS,265219,95,LIBRARY,12400,0,67.18,1325 S 5th Ave,33.43594,-112.08007
Fire Station 30,Fire,2020,0,SRP,265772,66,FIRESTATION,16000,2401,67.18,2701 W Belmont Ave,33.54895,-112.11758
South Mountain Senior Center,Human Services,2020,0,SRP,267341,198,ADULTEDUCATION,15000,1291,64.59,502 E Alta Vista Rd,33.38957,-112.07018
MDC/SVD,Police,2020,0,APS,272631,79,WAREHOUSE-UNREFR,26250,0,32.62,425 E Buckeye Rd,33.43579,-112.06823
Hermoso Park,Parks,2020,0,SRP,275702,545,PARK,0,0,,2030 E Southern Ave,33.39535,-112.03778
Travis L Williams Family Services Center,Human Services,2020,0,SRP,281280,122,OFFICE,16030,0,55.12,4732 S Central Ave,33.4035,-112.07468
South Mountain Precinct,Police,2020,0,APS,283692,82,POLICESTATION,11000,1573,95.31,400 W Southern Ave,33.39318,-112.0791
Fire Dept - Special Operations,Fire,2020,0,APS,283942,165,VOCATIONALSCHOOL,20641,1250,49.26,2430 S 22nd Ave,33.42534,-112.10713
Maryvale Precinct,Police,2020,0,SRP,287911,83,POLICESTATION,13583,2029,81.52,6180 W Encanto Blvd,33.47335,-112.19224
Central Precinct,Police,2020,0,APS,290010,96,POLICESTATION,29800,1315,34.98,1902 S 16th St,33.42907,-112.04925
Los Olivos Park - Devonshire Center,Parks,2020,0,SRP,296650,334,PARK,16100,0,57.87,2802 E Devonshire Ave,33.49715,-112.02009
Fire Station 41,Fire,2020,0,APS,301761,82,FIRESTATION,7332,1006,142.99,2501 W Morningside Dr,33.64841,-112.11314
South Mountain Community Center,Parks,2020,0,SRP,309361,262,COMMUNITYCENTER,17000,2630,72.63,6235 S 2nd St,33.38904,-112.07058
Skunk Creek Landfill,Public Works,2020,0,APS,312698,124,LANDFILL,0,0,,2920 W Happy Valley Rd,33.71235,-112.12473
Skunk Creek Landfill,Public Works,2020,0,APS,312698,124,LANDFILL,0,0,,2920 W Happy Valley Rd,33.71235,-112.12473
Glenrosa Fleet Services,Public Works,2020,0,SRP,313213,110,REPAIRSERVICES,13000,165,76.95,4015 W Glenrosa Ave,33.49832,-112.14539
Northern Command,Police,2020,0,APS,316207,73,POLICESTATION,13073,1346,86.27,302 E Union Hills Dr,33.65494,-112.06905
Fire Station 01,Fire,2020,20,APS,318608,86,FIRESTATION,13888,1059,79.68,323 N 4th Ave,33.45222,-112.0786
Cactus Park Precinct,Police,2020,0,APS,323584,112,POLICESTATION,13932,432,76.05,12220 N 39th Ave,33.59709,-112.14341
Cholla Library,Library,2020,0,APS,324841,228,LIBRARY,30000,0,34.01,10050 Metro Parkway East,33.57806,-112.11981
Salt River Fleet Services,Public Works,2020,0,APS,328824,222,REPAIRSERVICES,12600,1023,90.09,3045 S 22nd Ave,33.41953,-112.10455
Paradise Valley Community Cntr,Parks,2020,0,APS,332983,333,COMMUNITYCENTER,35506,2366,36.12,17642 N. 40th ST,33.64546,-111.99698
Agave Library,Library,2020,0,APS,336891,130,LIBRARY,25000,0,42.33,23550 N 36th AVE,33.69943,-112.14027
Desert West Community Center,Parks,2020,0,SRP,345188,142,COMMUNITYCENTER,14587,2406,90.82,6501 W Virginia Ave,33.47639,-112.20083
Washington Activity Center,Parks,2020,10,SRP,346891,157,COMMUNITYCENTER,32971,0,33.05,2240 W Citrus Way,33.53025,-112.10757
Fire Station 43,Fire,2020,0,SRP,364891,103,FIRESTATION,22000,2462,63.29,4110 E Chandler Blvd,33.30564,-111.9946
Glenrosa Park Admin,Public Works,2020,0,SRP,366111,115,OFFICE,11456,738,106.82,4155 W Glenrosa Ave,33.49805,-112.14791
Cesar Chavez Library,Library,2020,0,SRP,369600,127,LIBRARY,25000,0,46.44,3635 W Baseline Rd,33.37752,-112.1366
Deer Valley Community Center,Parks,2020,0,APS,375779,139,COMMUNITYCENTER,34294,1621,39.14,19602 N 19th Ave,33.66382,-112.10199
City Clerk Cust Srv Center,City Clerk,2020,0,APS,390494,215,OFFICE,19301,856,67.98,2640 S 22nd Ave,33.42267,-112.10682
Steele Indian School Restroom,Parks,2020,0,APS,401605,121,OTHERSERVICES,67470,0,18.7,300 E Indian School Rd,33.49881,-112.06911
Mesquite Library,Library,2020,0,APS,407989,112,LIBRARY,19875,0,64.48,4525 E Paradise Village Pkwy,33.60467,-111.98369
Signal Shop,Streets,2020,0,APS,412203,109,REPAIRSERVICES,32500,1166,43.43,2141 E Jefferson St,33.44681,-112.03516
Design & Construction Management Bldg,Streets,2020,0,APS,414236,250,OFFICE,19980,1291,71.58,1034 E Madison St,33.44603,-112.05992
PHX DCS Building,Aviation,2020,0,APS,423110,124,OFFICE,19247,0,69.05,500 S 24th St,33.44344,-112.03169
Historic City Hall,Public Works,2020,0,APS,436029,98,OFFICE,154852,0,8.84,17 S 2nd Ave,33.44777,-112.07575
Paradise Valley Pools,Parks,2020,0,APS,441381,94,SWIMMINGPOOL,15574,43173,366.23,17648 N 40th St,33.64741,-111.99742
Police Air Support,Police,2020,0,APS,480684,130,POLICESTATION,42894,0,35.2,702 W Deer Valley Dr,33.68663,-112.07341
PHX Aviation Admin Building,Aviation,2020,0,APS,483159,134,OFFICE,20795,0,72.98,3420 E Sky Harbor Blvd,33.43622,-112.00661
PHX Bus Maint Facility,Aviation,2020,0,APS,505211,101,REPAIRSERVICES,27848,1739,63.23,2425 E Buckeye Rd,33.43605,-112.03348
Estrella Mountain Precinct,Police,2020,0,SRP,544612,127,POLICESTATION,32840,2631,60.1,2111 S 99th Ave,33.42539,-112.2675
Black Mountain Precinct,Police,2020,0,APS,548289,128,POLICESTATION,30524,2130,63.4,33355 N Cave Creek Rd,33.78771,-111.96909
Southern Command,Police,2020,0,SRP,552891,133,POLICESTATION,27500,3263,75.02,3443 S Central Ave,33.41464,-112.07255
Memorial Hall,Parks,2020,0,APS,558125,190,MUSEUM,0,0,,300 E Indian School Rd,33.49777,-112.06967
PHX Fire Station 19,Aviation,2020,0,APS,559823,156,FIRESTATION,34101,0,51.56,3547 E Sky Harbor Blvd,33.43421,-112.0056
Maryvale Terrace,Housing,2020,0,SRP,566880,154,MULTIHOUSING,76000,7242,32.96,4545 N Maryvale Pkwy,33.5036,-112.17064
Mountain View Precinct,Police,2020,0,SRP,576361,130,POLICESTATION,30524,3608,71.13,2075 E Maryland Ave,33.52986,-112.03588
PHX Operations Center,Aviation,2020,0,APS,578454,150,OFFICE,15276,0,118.94,3300 E Sky Harbor Blvd,33.43566,-112.01124
Pueblo Grande Museum,Parks,2020,0,APS,580312,221,MUSEUM,17144,0,106.32,4619 E Washington St,33.44675,-111.98479
Recruit Training Building,Fire,2020,0,APS,589259,141,VOCATIONALSCHOOL,50000,0,37.02,2425 W Lower Buckeye Rd,33.41996,-112.11138
Salt River Service Center Office,Public Works,2020,0,APS,592881,336,OFFICE,46691,1957,44.08,3045 S 22nd Ave,33.41902,-112.10581
Rose Mofford,Parks,2020,0,APS,594672,952,PARK,8313,0,224.69,9833 N 25th Ave,33.57471,-112.11081
Cave Creek Park- Sweetwater,Parks,2020,0,APS,617416,0,PARK,0,0,,2409 W Sweetwater Ave,33.60498,-112.11051
Reach 11 Soccer Bldg,Parks,2020,0,APS,617658,0,PARK,3990,0,486.23,2425 E Deer Valley Dr,33.68389,-112.02275
PHX Building A - Cargo,Aviation,2020,0,APS,634159,147,DISTRIBUTION,53417,0,37.29,1247 S 27th St,33.43463,-112.02253
Japanese Friendship Garden,Parks,2020,0,APS,667411,188,PARK,1347,0,1556.3,1125 N 3rd Ave,33.461,-112.07676
Phoenix Theatre,Arts,2020,0,APS,679727,316,PERFORMINGARTS,35000,6046,78.27,100 E McDowell Rd,33.4668,-112.0721
PHX Building B - Cargo,Aviation,2020,0,APS,698750,136,DISTRIBUTION,53290,0,41.19,1249 S 27th St,33.43466,-112.02344
Goelet A Beuf Community Center,Parks,2020,0,APS,728857,197,COMMUNITYCENTER,48000,1210,50.22,3435 W. Pinnacle Peak Rd,33.69624,-112.13291
Luke Krohn Apartments,Housing,2020,0,APS,748200,246,MULTIHOUSING,0,354,,1940 1/2 E. Villa St,33.45687,-112.04122
Ambassador West,Housing,2020,0,APS,750720,172,MULTIHOUSING,0,0,,340 N 5th Ave,33.45281,-112.0804
Maryvale Community Center,Parks,2020,0,SRP,760600,576,COMMUNITYCENTER,27000,0,88.48,4402 N 51st Ave,33.50052,-112.17223
PHX East Econ Pkg Garage,Aviation,2020,1300,APS,828377,403,PARKING,0,0,,4445 E Sky Harbor Blvd,33.43543,-111.98391
Herberger Theater,Convention,2020,0,APS,893900,336,PERFORMINGARTS,0,0,,222 E Monroe St,33.45104,-112.07079
PHX Facilities & Services,Aviation,2020,0,APS,930433,237,OFFICE,61085,1896,50.95,2515 E Buckeye Rd,33.43647,-112.02764
Fire Admin - Ops Phase 1,Fire,2020,0,APS,942360,209,OFFICE,95866,0,30.88,150 S 12th St,33.44574,-112.0577
Sunnyslope Manor,Housing,2020,113,APS,965302,4448,MULTIHOUSING,111596,0,27.17,205 E Ruth Ave,33.56282,-112.07142
PineTower,Housing,2020,0,SRP,1010586,248,MULTIHOUSING,100224,3318,34.98,2936 N 36th St,33.48206,-112.00484
Fillmore Gardens,Housing,2020,307,APS,1019100,279,MULTIHOUSING,6600,0,485,802 N 22nd Pl,33.45673,-112.03312
Fire Resource Management,Fire,2020,0,APS,1023219,247,OFFICE,85000,1450,39.52,2625 S 19th Ave,33.42384,-112.09864
Okemah Bldg,Public Works,2020,0,SRP,1034273,297,REPAIRSERVICES,27387,0,118.62,3828 E Anne St,33.4146,-111.99711
Equipment Mgmt Complex,Public Works,2020,540,APS,1042218,404,REPAIRSERVICES,106620,15836,45.56,2441 S 22 Ave,33.42482,-112.10515
PHX Consolidated Office Building,Aviation,2020,580,APS,1053082,468,OFFICE,78000,0,42.41,2485 E Buckeye Rd,33.43583,-112.03144
PHX Building C - Cargo,Aviation,2020,0,APS,1082722,216,DISTRIBUTION,79933,0,42.55,1251 S 25th St,33.43504,-112.02546
Vision Partnership,Police,2020,0,SRP,1116405,249,OFFICE,55000,0,63.76,3945 E Broadway Rd,33.40805,-111.7462
GY Building 18,Aviation,2020,0,APS,1134418,273,UNKNOWN,0,0,,1658 S Litchfield Rd,N/A,N/A
PHX Building 1302,Aviation,2020,0,APS,1172688,415,UNKNOWN,0,0,,2739 E Washington St,33.44778,-112.02183
Cesar Chavez Park,Parks,2020,0,SRP,1173696,2690,PARK,0,0,,7858 S 35th Ave,33.37291,-112.13628
PHX Terminal 2,Aviation,2020,0,APS,1225942,2658,TRANSPORTATIONTE,330000,0,11.67,3200 E Sky Harbor Blvd,33.43619,-112.01359
Union Hills Svc Cntr Main,Public Works,2020,0,APS,1274860,372,MIXEDUSEPROPERTY,36310,0,110.28,202 E Union Hills Dr,33.65486,-112.07616
Symphony Hall,Convention,2020,0,APS,1453093,400,PERFORMINGARTS,0,0,,75 N 2nd St,33.44885,-112.07058
AHQ2 Building 8,Fire,2020,0,APS,1464287,296,VOCATIONALSCHOOL,88000,0,52.27,2425 W Lower Buckeye Rd,33.41987,-112.11055
PCC East Garage,Convention,2020,0,APS,1526710,292,PARKING,0,0,,601 E Washington St,33.44769,-112.06636
Pecos Park - Community Center,Parks,2020,30,SRP,1595744,704,COMMUNITYCENTER,93670,5731,59.63,17010 S 48th St,33.29166,-111.98354
Sidney P Osborn Apartments,Housing,2020,0,APS,1715391,621,MULTIHOUSING,0,1,,1730 E Moneroe St,33.45039,-112.0445
Evidence Lot/Warehouse,Police,2020,0,SRP,1879736,338,WAREHOUSE-UNREFR,120000,217,49.38,100 E Elwood St,33.41491,-112.07016
Police Academy,Police,2020,0,SRP,1937639,432,VOCATIONALSCHOOL,67000,3849,96.58,10001 S 15th Ave,33.35426,-112.08745
Fire Admin - Ops Phase 2,Fire,2020,0,APS,1938682,366,REPAIRSERVICES,42193,820,146.27,150 S 12th St,33.44574,-112.0577
Regency Garage,Convention,2020,0,APS,2353173,479,PARKING,0,1259,,121 E Adams St,33.44906,-112.07187
Adams St Garage,Public Works,2020,882,APS,2402642,498,PARKING,11590,1254,661.96,310 W Adams St,33.44947,-112.07818
PCC South Bldg,Convention,2020,0,APS,2855448,956,CONVENTION_CN,286000,2506,32.24,95 S 3rd St,33.44731,-112.06939
Phoenix Municipal Courts Bldg,Public Works,2020,10,APS,3059932,1823,COURTHOUSE,374255,1138,25.99,300 W Washington St,33.44877,-112.07832
Central Library - Burton Barr,Library,2020,150,APS,3125546,802,LIBRARY,280000,93402,68.42,1221 N Central Ave,33.46323,-112.07286
27th Ave Transfer Stn,Public Works,2020,0,APS,3287822,1504,MRF,129420,0,79.79,3060 S. 27th Ave,33.41652,-112.12126
PHX South Air Cargo,Aviation,2020,0,APS,3498412,767,WAREHOUSE-UNREFR,173134,0,63.47,3002 E Old Tower Rd,33.42462,-112.01578
Phoenix Art Museum,Arts,2020,0,APS,3511712,1143,MUSEUM,385669,50720,41.75,1625 N Central Ave,33.46698,-112.07257
North Gateway Transfer Station,Public Works,2020,7,APS,3533168,786,MRF,210617,5466,55.29,30205 N Black Canyon Hwy,33.76058,-112.11647
Police Crime Lab,Police,2020,0,APS,3817577,1098,LABORATORY,104000,111383,222.4,621 W Washington St,33.44766,-112.08191
Family Advocacy Center,Human Services,2020,0,APS,4061800,696,OFFICE,95697,0,133.32,2120 N Central Ave,33.47141,-112.07443
Police Headquarters,Police,2020,0,APS,4766716,843,POLICESTATION,155880,693,96.49,620 W Washington St,33.44877,-112.08198
PHX Rental Car Center,Aviation,2020,4100,APS,6660320,1834,PARKING,361276,614,58.08,1795 E Sky Harbor Cir S,33.43014,-112.0451
Phoenix City Hall,Public Works,2020,0,APS,10370048,3206,OFFICE,600000,48805,62.42,200 W Washington St,33.44879,-112.07707
PHX SkyTrain Switch Yard,Aviation,2020,0,APS,12540154,2189,TRANSPORTATIONTE,0,0,,333 S 42nd St,N/A,N/A
PCC North & West Bldgs,Convention,2020,100,APS,14342114,3770,CONVENTION_CN,1766280,297702,42.36,100 N 3rd St,33.44981,-112.07045
PHX Terminal 3,Aviation,2020,0,APS,22345870,4277,TRANSPORTATIONTE,880000,0,79.76,3400 E Sky Harbor Blvd,33.43543,-112.00829
PHX Terminal 4,Aviation,2020,0,APS,69527895,22957,TRANSPORTATIONTE,1918732,31382,115.45,3800 E Sky Harbor Blvd,33.43549,-111.99787